[{"_id":"MXy5pqhNXYwymyDGN","_account":"YzzrzBrO9OSzo6BXwAvVuL5dmMKMqkhOoEqeo","amount":1.53,"date":"2016-04-10T04:00:00.000Z","name":"Interest Paid","meta":{"location":{"address":"262 W 15th St","city":"New York","state":"NY","zip":"10011","coordinates":{"lat":40.740352,"lon":-74.001761}}},"pending":false,"type":{"primary":"place"},"category":["Interest","Interest Earned"],"category_id":"13005000","score":{"location":{"address":1,"city":1,"state":1},"name":0.9}},{"_id":"Lbb6sx2njdrTZaWgY","_account":"YzzrzBrO9OSzo6BXwAvVuL5dmMKMqkhOoEqeo","amount":10,"date":"2016-04-10T04:00:00.000Z","name":"ATM Fee Refund","meta":{"location":{"address":"262 W 15th St","city":"New York","state":"NY","zip":"10011","coordinates":{"lat":40.740352,"lon":-74.001761}}},"pending":false,"type":{"primary":"place"},"category":["Bank Fees","ATM"],"category_id":"13005000","score":{"location":{"address":1,"city":1,"state":1},"name":0.9}},{"_id":"f3p5QHc4YhKzhpG9S","_account":"YzzrzBrO9OSzo6BXwAvVuL5dmMKMqkhOoEqeo","amount":4037.11,"date":"2016-04-08T04:00:00.000Z","name":"Free Childre Direct","meta":{"location":{"address":"262 W 15th St","city":"New York","state":"NY","zip":"10011","coordinates":{"lat":40.740352,"lon":-74.001761}}},"pending":false,"type":{"primary":"place"},"category":["Transfer","Payroll"],"category_id":"13005000","score":{"location":{"address":1,"city":1,"state":1},"name":0.9}},{"_id":"cLXRjGoumnHazBX4y","_account":"YzzrzBrO9OSzo6BXwAvVuL5dmMKMqkhOoEqeo","amount":41.85,"date":"2016-04-08T04:00:00.000Z","name":"Wscs Smith Laun 137 Smith Street","meta":{"location":{"address":"262 W 15th St","city":"New York","state":"NY","zip":"10011","coordinates":{"lat":40.740352,"lon":-74.001761}}},"pending":false,"type":{"primary":"place"},"category":[],"category_id":"13005000","score":{"location":{"address":1,"city":1,"state":1},"name":0.9}},{"_id":"CtsQ5qZijE86aAdHz","_account":"YzzrzBrO9OSzo6BXwAvVuL5dmMKMqkhOoEqeo","amount":1.28,"date":"2016-04-08T04:00:00.000Z","name":"Hello","meta":{"location":{"address":"262 W 15th St","city":"New York","state":"NY","zip":"10011","coordinates":{"lat":40.740352,"lon":-74.001761}}},"pending":false,"type":{"primary":"place"},"category":["Service","Business Services"],"category_id":"13005000","score":{"location":{"address":1,"city":1,"state":1},"name":0.9}},{"_id":"DtcL6NinMzB5mHDey","_account":"YzzrzBrO9OSzo6BXwAvVuL5dmMKMqkhOoEqeo","amount":74.47,"date":"2016-04-07T04:00:00.000Z","name":"Hello","meta":{"location":{"address":"262 W 15th St","city":"New York","state":"NY","zip":"10011","coordinates":{"lat":40.740352,"lon":-74.001761}}},"pending":false,"type":{"primary":"place"},"category":["Service","Business Services"],"category_id":"13005000","score":{"location":{"address":1,"city":1,"state":1},"name":0.9}},{"_id":"mvwoT2jbZL9NTrsgH","_account":"YzzrzBrO9OSzo6BXwAvVuL5dmMKMqkhOoEqeo","amount":17.02,"date":"2016-04-06T04:00:00.000Z","name":"National Grid","meta":{"location":{"address":"262 W 15th St","city":"New York","state":"NY","zip":"10011","coordinates":{"lat":40.740352,"lon":-74.001761}}},"pending":false,"type":{"primary":"place"},"category":["Service","Utilities"],"category_id":"13005000","score":{"location":{"address":1,"city":1,"state":1},"name":0.9}},{"_id":"LyoCPwnZS8DsKG997","_account":"YzzrzBrO9OSzo6BXwAvVuL5dmMKMqkhOoEqeo","amount":28.95,"date":"2016-07-05T04:00:00.000Z","name":"Banfield Pet Hospital","meta":{"location":{"address":"262 W 15th St","city":"New York","state":"NY","zip":"10011","coordinates":{"lat":40.740352,"lon":-74.001761}}},"pending":false,"type":{"primary":"place"},"category":["Service","Veterinarians"],"category_id":"13005000","score":{"location":{"address":1,"city":1,"state":1},"name":0.9}},{"_id":"E8TGHQfi3qMcoGkHY","_account":"YzzrzBrO9OSzo6BXwAvVuL5dmMKMqkhOoEqeo","amount":23.97,"date":"2016-07-05T04:00:00.000Z","name":"Stripe Transfer Future","meta":{"location":{"address":"262 W 15th St","city":"New York","state":"NY","zip":"10011","coordinates":{"lat":40.740352,"lon":-74.001761}}},"pending":false,"type":{"primary":"place"},"category":["Transfer"],"category_id":"13005000","score":{"location":{"address":1,"city":1,"state":1},"name":0.9}},{"_id":"QnWmCGNCedtuwtwMy","_account":"YzzrzBrO9OSzo6BXwAvVuL5dmMKMqkhOoEqeo","amount":277.32,"date":"2016-07-05T04:00:00.000Z","name":"Betterment Sec Transfer","meta":{"location":{"address":"262 W 15th St","city":"New York","state":"NY","zip":"10011","coordinates":{"lat":40.740352,"lon":-74.001761}}},"pending":false,"type":{"primary":"place"},"category":["Transfer"],"category_id":"13005000","score":{"location":{"address":1,"city":1,"state":1},"name":0.9}},{"_id":"mupwz6H3sqPRt6a6N","_account":"YzzrzBrO9OSzo6BXwAvVuL5dmMKMqkhOoEqeo","amount":32.23,"date":"2016-07-05T04:00:00.000Z","name":"Hello","meta":{"location":{"address":"262 W 15th St","city":"New York","state":"NY","zip":"10011","coordinates":{"lat":40.740352,"lon":-74.001761}}},"pending":false,"type":{"primary":"place"},"category":["Service","Business Services"],"category_id":"13005000","score":{"location":{"address":1,"city":1,"state":1},"name":0.9}},{"_id":"vDYST8rqEFbnScfv6","_account":"YzzrzBrO9OSzo6BXwAvVuL5dmMKMqkhOoEqeo","amount":518.72,"date":"2016-07-05T04:00:00.000Z","name":"Capital One Crcardpmt","meta":{"location":{"address":"262 W 15th St","city":"New York","state":"NY","zip":"10011","coordinates":{"lat":40.740352,"lon":-74.001761}}},"pending":false,"type":{"primary":"place"},"category":["Payment","Credit Card"],"category_id":"13005000","score":{"location":{"address":1,"city":1,"state":1},"name":0.9}},{"_id":"AsPN46WQgbxMMyz3i","_account":"YzzrzBrO9OSzo6BXwAvVuL5dmMKMqkhOoEqeo","amount":5.25,"date":"2016-07-01T04:00:00.000Z","name":"Hello","meta":{"location":{"address":"262 W 15th St","city":"New York","state":"NY","zip":"10011","coordinates":{"lat":40.740352,"lon":-74.001761}}},"pending":false,"type":{"primary":"place"},"category":["Service","Business Services"],"category_id":"13005000","score":{"location":{"address":1,"city":1,"state":1},"name":0.9}},{"_id":"dEKEbFCCfCPAZwNHE","_account":"YzzrzBrO9OSzo6BXwAvVuL5dmMKMqkhOoEqeo","amount":2356.29,"date":"2016-07-01T04:00:00.000Z","name":"Free Childre Direct","meta":{"location":{"address":"262 W 15th St","city":"New York","state":"NY","zip":"10011","coordinates":{"lat":40.740352,"lon":-74.001761}}},"pending":false,"type":{"primary":"place"},"category":["Transfer","Payroll"],"category_id":"13005000","score":{"location":{"address":1,"city":1,"state":1},"name":0.9}},{"_id":"vecPKNrYZ6bcs3CJ2","_account":"YzzrzBrO9OSzo6BXwAvVuL5dmMKMqkhOoEqeo","amount":116.05,"date":"2016-06-30T04:00:00.000Z","name":"ACS Education Services","meta":{"location":{"address":"262 W 15th St","city":"New York","state":"NY","zip":"10011","coordinates":{"lat":40.740352,"lon":-74.001761}}},"pending":false,"type":{"primary":"place"},"category":["Payment","Loan"],"category_id":"13005000","score":{"location":{"address":1,"city":1,"state":1},"name":0.9}},{"_id":"3Xi7fAZip3M8YFFbz","_account":"YzzrzBrO9OSzo6BXwAvVuL5dmMKMqkhOoEqeo","amount":63.64,"date":"2016-06-30T04:00:00.000Z","name":"ACS Education Services","meta":{"location":{"address":"262 W 15th St","city":"New York","state":"NY","zip":"10011","coordinates":{"lat":40.740352,"lon":-74.001761}}},"pending":false,"type":{"primary":"place"},"category":["Payment","Loan"],"category_id":"13005000","score":{"location":{"address":1,"city":1,"state":1},"name":0.9}},{"_id":"frkHvFnJ8rpRdd4MG","_account":"YzzrzBrO9OSzo6BXwAvVuL5dmMKMqkhOoEqeo","amount":3257.58,"date":"2016-06-30T04:00:00.000Z","name":"Huge Llc Dir","meta":{"location":{"address":"262 W 15th St","city":"New York","state":"NY","zip":"10011","coordinates":{"lat":40.740352,"lon":-74.001761}}},"pending":false,"type":{"primary":"place"},"category":["Transfer","Payroll"],"category_id":"13005000","score":{"location":{"address":1,"city":1,"state":1},"name":0.9}},{"_id":"SEKnNi3ESKRg4vT5c","_account":"YzzrzBrO9OSzo6BXwAvVuL5dmMKMqkhOoEqeo","amount":250,"date":"2016-06-30T04:00:00.000Z","name":"Nicholas A Brown","meta":{"location":{"address":"262 W 15th St","city":"New York","state":"NY","zip":"10011","coordinates":{"lat":40.740352,"lon":-74.001761}}},"pending":false,"type":{"primary":"place"},"category":[],"category_id":"13005000","score":{"location":{"address":1,"city":1,"state":1},"name":0.9}},{"_id":"hebL4mpBWAf9SwpWN","_account":"YzzrzBrO9OSzo6BXwAvVuL5dmMKMqkhOoEqeo","amount":7.99,"date":"2016-06-29T04:00:00.000Z","name":"Hulu","meta":{"location":{"address":"262 W 15th St","city":"New York","state":"NY","zip":"10011","coordinates":{"lat":40.740352,"lon":-74.001761}}},"pending":false,"type":{"primary":"place"},"category":["Recreation","Arts and Entertainment","Movie Theatres"],"category_id":"13005000","score":{"location":{"address":1,"city":1,"state":1},"name":0.9}},{"_id":"noT9ug2dFiTStJim4","_account":"YzzrzBrO9OSzo6BXwAvVuL5dmMKMqkhOoEqeo","amount":42,"date":"2016-06-29T04:00:00.000Z","name":"Venmo Cashout","meta":{"location":{"address":"262 W 15th St","city":"New York","state":"NY","zip":"10011","coordinates":{"lat":40.740352,"lon":-74.001761}}},"pending":false,"type":{"primary":"place"},"category":["Transfer","Deposit"],"category_id":"13005000","score":{"location":{"address":1,"city":1,"state":1},"name":0.9}},{"_id":"ke2hyGSSHMJXfY32h","_account":"YzzrzBrO9OSzo6BXwAvVuL5dmMKMqkhOoEqeo","amount":61.99,"date":"2016-06-29T04:00:00.000Z","name":"Pai Iso 52 Jay Street","meta":{"location":{"address":"262 W 15th St","city":"New York","state":"NY","zip":"10011","coordinates":{"lat":40.740352,"lon":-74.001761}}},"pending":false,"type":{"primary":"place"},"category":["Transfer","Withdrawal","ATM"],"category_id":"13005000","score":{"location":{"address":1,"city":1,"state":1},"name":0.9}},{"_id":"RSEEoqpqmQZHNeRSn","_account":"YzzrzBrO9OSzo6BXwAvVuL5dmMKMqkhOoEqeo","amount":51.01,"date":"2016-06-29T04:00:00.000Z","name":"Hello","meta":{"location":{"address":"262 W 15th St","city":"New York","state":"NY","zip":"10011","coordinates":{"lat":40.740352,"lon":-74.001761}}},"pending":false,"type":{"primary":"place"},"category":["Service","Business Services"],"category_id":"13005000","score":{"location":{"address":1,"city":1,"state":1},"name":0.9}},{"_id":"hDqcFp9QHRZNarhz8","_account":"YzzrzBrO9OSzo6BXwAvVuL5dmMKMqkhOoEqeo","amount":23.97,"date":"2016-06-28T04:00:00.000Z","name":"Stripe Transfer Future","meta":{"location":{"address":"262 W 15th St","city":"New York","state":"NY","zip":"10011","coordinates":{"lat":40.740352,"lon":-74.001761}}},"pending":false,"type":{"primary":"place"},"category":["Transfer"],"category_id":"13005000","score":{"location":{"address":1,"city":1,"state":1},"name":0.9}},{"_id":"LbyLXMaXxh3JNwpzk","_account":"YzzrzBrO9OSzo6BXwAvVuL5dmMKMqkhOoEqeo","amount":30,"date":"2016-06-28T04:00:00.000Z","name":"Hello Digit Savings","meta":{"location":{"address":"262 W 15th St","city":"New York","state":"NY","zip":"10011","coordinates":{"lat":40.740352,"lon":-74.001761}}},"pending":false,"type":{"primary":"place"},"category":["Transfer","Deposit"],"category_id":"13005000","score":{"location":{"address":1,"city":1,"state":1},"name":0.9}},{"_id":"NRQFgCTQKLQZxok39","_account":"YzzrzBrO9OSzo6BXwAvVuL5dmMKMqkhOoEqeo","amount":77.87,"date":"2016-06-28T04:00:00.000Z","name":"Hello","meta":{"location":{"address":"262 W 15th St","city":"New York","state":"NY","zip":"10011","coordinates":{"lat":40.740352,"lon":-74.001761}}},"pending":false,"type":{"primary":"place"},"category":["Service","Business Services"],"category_id":"13005000","score":{"location":{"address":1,"city":1,"state":1},"name":0.9}},{"_id":"fjsQuSjuQSyAJPGJq","_account":"YzzrzBrO9OSzo6BXwAvVuL5dmMKMqkhOoEqeo","amount":4694.75,"date":"2016-06-28T04:00:00.000Z","name":"American Express","meta":{"location":{"address":"262 W 15th St","city":"New York","state":"NY","zip":"10011","coordinates":{"lat":40.740352,"lon":-74.001761}}},"pending":false,"type":{"primary":"place"},"category":["Payment","Credit Card"],"category_id":"13005000","score":{"location":{"address":1,"city":1,"state":1},"name":0.9}},{"_id":"CyR3DoTcocSubwJg3","_account":"YzzrzBrO9OSzo6BXwAvVuL5dmMKMqkhOoEqeo","amount":4980.77,"date":"2016-06-27T04:00:00.000Z","name":"Transfer from Online Savings Account","meta":{"location":{"address":"262 W 15th St","city":"New York","state":"NY","zip":"10011","coordinates":{"lat":40.740352,"lon":-74.001761}}},"pending":false,"type":{"primary":"place"},"category":["Transfer"],"category_id":"13005000","score":{"location":{"address":1,"city":1,"state":1},"name":0.9}},{"_id":"toWEjygy7LpxFKpvQ","_account":"YzzrzBrO9OSzo6BXwAvVuL5dmMKMqkhOoEqeo","amount":195,"date":"2016-06-27T04:00:00.000Z","name":"Hello Digit Savings","meta":{"location":{"address":"262 W 15th St","city":"New York","state":"NY","zip":"10011","coordinates":{"lat":40.740352,"lon":-74.001761}}},"pending":false,"type":{"primary":"place"},"category":["Transfer","Deposit"],"category_id":"13005000","score":{"location":{"address":1,"city":1,"state":1},"name":0.9}},{"_id":"cPazvmpszNBcPLqkb","_account":"YzzrzBrO9OSzo6BXwAvVuL5dmMKMqkhOoEqeo","amount":2280,"date":"2016-06-24T04:00:00.000Z","name":"Dam Realty Corp.","meta":{"location":{"address":"262 W 15th St","city":"New York","state":"NY","zip":"10011","coordinates":{"lat":40.740352,"lon":-74.001761}}},"pending":false,"type":{"primary":"place"},"category":["Service","Home Improvement"],"category_id":"13005000","score":{"location":{"address":1,"city":1,"state":1},"name":0.9}},{"_id":"g8tg6muHzE2mTaPPc","_account":"YzzrzBrO9OSzo6BXwAvVuL5dmMKMqkhOoEqeo","amount":35.36,"date":"2016-06-24T04:00:00.000Z","name":"Hello","meta":{"location":{"address":"262 W 15th St","city":"New York","state":"NY","zip":"10011","coordinates":{"lat":40.740352,"lon":-74.001761}}},"pending":false,"type":{"primary":"place"},"category":["Service","Business Services"],"category_id":"13005000","score":{"location":{"address":1,"city":1,"state":1},"name":0.9}},{"_id":"hBqynTCytNysZouDD","_account":"YzzrzBrO9OSzo6BXwAvVuL5dmMKMqkhOoEqeo","amount":71.91,"date":"2016-06-24T04:00:00.000Z","name":"Stripe Transfer Future","meta":{"location":{"address":"262 W 15th St","city":"New York","state":"NY","zip":"10011","coordinates":{"lat":40.740352,"lon":-74.001761}}},"pending":false,"type":{"primary":"place"},"category":["Transfer"],"category_id":"13005000","score":{"location":{"address":1,"city":1,"state":1},"name":0.9}},{"_id":"undEu7Xfbcuouppjt","_account":"YzzrzBrO9OSzo6BXwAvVuL5dmMKMqkhOoEqeo","amount":34.11,"date":"2016-06-23T04:00:00.000Z","name":"Hello","meta":{"location":{"address":"262 W 15th St","city":"New York","state":"NY","zip":"10011","coordinates":{"lat":40.740352,"lon":-74.001761}}},"pending":false,"type":{"primary":"place"},"category":["Service","Business Services"],"category_id":"13005000","score":{"location":{"address":1,"city":1,"state":1},"name":0.9}},{"_id":"7yn4pbJsn4QXthYrP","_account":"YzzrzBrO9OSzo6BXwAvVuL5dmMKMqkhOoEqeo","amount":95.88,"date":"2016-06-23T04:00:00.000Z","name":"Stripe Transfer Future","meta":{"location":{"address":"262 W 15th St","city":"New York","state":"NY","zip":"10011","coordinates":{"lat":40.740352,"lon":-74.001761}}},"pending":false,"type":{"primary":"place"},"category":["Transfer"],"category_id":"13005000","score":{"location":{"address":1,"city":1,"state":1},"name":0.9}},{"_id":"tvu6qYyYeiPHRX4Ng","_account":"YzzrzBrO9OSzo6BXwAvVuL5dmMKMqkhOoEqeo","amount":95.88,"date":"2016-06-22T04:00:00.000Z","name":"Stripe Transfer Future","meta":{"location":{"address":"262 W 15th St","city":"New York","state":"NY","zip":"10011","coordinates":{"lat":40.740352,"lon":-74.001761}}},"pending":false,"type":{"primary":"place"},"category":["Transfer"],"category_id":"13005000","score":{"location":{"address":1,"city":1,"state":1},"name":0.9}},{"_id":"79NMzLZ2TRsuiF2EY","_account":"YzzrzBrO9OSzo6BXwAvVuL5dmMKMqkhOoEqeo","amount":58.51,"date":"2016-06-22T04:00:00.000Z","name":"Consolidated Edison","meta":{"location":{"address":"262 W 15th St","city":"New York","state":"NY","zip":"10011","coordinates":{"lat":40.740352,"lon":-74.001761}}},"pending":false,"type":{"primary":"place"},"category":["Service","Utilities"],"category_id":"13005000","score":{"location":{"address":1,"city":1,"state":1},"name":0.9}},{"_id":"dCo3tkk9BqL7hXv6x","_account":"YzzrzBrO9OSzo6BXwAvVuL5dmMKMqkhOoEqeo","amount":41.99,"date":"2016-06-21T04:00:00.000Z","name":"Pai Iso 52 Jay Street","meta":{"location":{"address":"262 W 15th St","city":"New York","state":"NY","zip":"10011","coordinates":{"lat":40.740352,"lon":-74.001761}}},"pending":false,"type":{"primary":"place"},"category":["Transfer","Withdrawal","ATM"],"category_id":"13005000","score":{"location":{"address":1,"city":1,"state":1},"name":0.9}},{"_id":"fGRJtLQkztAtYnoyr","_account":"YzzrzBrO9OSzo6BXwAvVuL5dmMKMqkhOoEqeo","amount":13.13,"date":"2016-06-21T04:00:00.000Z","name":"Hello","meta":{"location":{"address":"262 W 15th St","city":"New York","state":"NY","zip":"10011","coordinates":{"lat":40.740352,"lon":-74.001761}}},"pending":false,"type":{"primary":"place"},"category":["Service","Business Services"],"category_id":"13005000","score":{"location":{"address":1,"city":1,"state":1},"name":0.9}},{"_id":"pHYLWgBn4T9Ni87Cb","_account":"YzzrzBrO9OSzo6BXwAvVuL5dmMKMqkhOoEqeo","amount":1053.33,"date":"2016-06-20T04:00:00.000Z","name":"Navi Ed Serv","meta":{"location":{"address":"262 W 15th St","city":"New York","state":"NY","zip":"10011","coordinates":{"lat":40.740352,"lon":-74.001761}}},"pending":false,"type":{"primary":"place"},"category":["Payment","Loan"],"category_id":"13005000","score":{"location":{"address":1,"city":1,"state":1},"name":0.9}},{"_id":"CgpyfG585q3ww4oGd","_account":"YzzrzBrO9OSzo6BXwAvVuL5dmMKMqkhOoEqeo","amount":200,"date":"2016-06-20T04:00:00.000Z","name":"Check 1187","meta":{"location":{"address":"262 W 15th St","city":"New York","state":"NY","zip":"10011","coordinates":{"lat":40.740352,"lon":-74.001761}}},"pending":false,"type":{"primary":"place"},"category":["Transfer","Billpay"],"category_id":"13005000","score":{"location":{"address":1,"city":1,"state":1},"name":0.9}},{"_id":"yXni6tAoajKvueBWw","_account":"YzzrzBrO9OSzo6BXwAvVuL5dmMKMqkhOoEqeo","amount":11.67,"date":"2016-06-20T04:00:00.000Z","name":"Hello","meta":{"location":{"address":"262 W 15th St","city":"New York","state":"NY","zip":"10011","coordinates":{"lat":40.740352,"lon":-74.001761}}},"pending":false,"type":{"primary":"place"},"category":["Service","Business Services"],"category_id":"13005000","score":{"location":{"address":1,"city":1,"state":1},"name":0.9}},{"_id":"27CdXnPPMvEWgtn8K","_account":"YzzrzBrO9OSzo6BXwAvVuL5dmMKMqkhOoEqeo","amount":45.63,"date":"2016-06-19T04:00:00.000Z","name":"Tyrellstown Dublin Ie","meta":{"location":{"address":"262 W 15th St","city":"New York","state":"NY","zip":"10011","coordinates":{"lat":40.740352,"lon":-74.001761}}},"pending":false,"type":{"primary":"place"},"category":[],"category_id":"13005000","score":{"location":{"address":1,"city":1,"state":1},"name":0.9}},{"_id":"JDkGS6FDWMeMn36cb","_account":"YzzrzBrO9OSzo6BXwAvVuL5dmMKMqkhOoEqeo","amount":22.82,"date":"2016-06-18T04:00:00.000Z","name":"Germany Munich De","meta":{"location":{"address":"262 W 15th St","city":"New York","state":"NY","zip":"10011","coordinates":{"lat":40.740352,"lon":-74.001761}}},"pending":false,"type":{"primary":"place"},"category":["Shops","Supermarkets and Groceries"],"category_id":"13005000","score":{"location":{"address":1,"city":1,"state":1},"name":0.9}},{"_id":"ew7Z6oukMaprTPr9p","_account":"YzzrzBrO9OSzo6BXwAvVuL5dmMKMqkhOoEqeo","amount":228.06,"date":"2016-06-17T04:00:00.000Z","name":"Stadtsparkasse Muenche Fl","meta":{"location":{"address":"262 W 15th St","city":"New York","state":"NY","zip":"10011","coordinates":{"lat":40.740352,"lon":-74.001761}}},"pending":false,"type":{"primary":"place"},"category":[],"category_id":"13005000","score":{"location":{"address":1,"city":1,"state":1},"name":0.9}},{"_id":"jwyL8FMKhNEopCWk5","_account":"YzzrzBrO9OSzo6BXwAvVuL5dmMKMqkhOoEqeo","amount":4154.74,"date":"2016-06-17T04:00:00.000Z","name":"Free Childre Direct","meta":{"location":{"address":"262 W 15th St","city":"New York","state":"NY","zip":"10011","coordinates":{"lat":40.740352,"lon":-74.001761}}},"pending":false,"type":{"primary":"place"},"category":["Transfer","Payroll"],"category_id":"13005000","score":{"location":{"address":1,"city":1,"state":1},"name":0.9}},{"_id":"5mDW8Se4h3rnC3BdE","_account":"YzzrzBrO9OSzo6BXwAvVuL5dmMKMqkhOoEqeo","amount":23.71,"date":"2016-06-16T04:00:00.000Z","name":"Hello","meta":{"location":{"address":"262 W 15th St","city":"New York","state":"NY","zip":"10011","coordinates":{"lat":40.740352,"lon":-74.001761}}},"pending":false,"type":{"primary":"place"},"category":["Service","Business Services"],"category_id":"13005000","score":{"location":{"address":1,"city":1,"state":1},"name":0.9}},{"_id":"oy4zYfANXQpwGJPHp","_account":"YzzrzBrO9OSzo6BXwAvVuL5dmMKMqkhOoEqeo","amount":12.31,"date":"2016-06-15T04:00:00.000Z","name":"Hello","meta":{"location":{"address":"262 W 15th St","city":"New York","state":"NY","zip":"10011","coordinates":{"lat":40.740352,"lon":-74.001761}}},"pending":false,"type":{"primary":"place"},"category":["Service","Business Services"],"category_id":"13005000","score":{"location":{"address":1,"city":1,"state":1},"name":0.9}},{"_id":"AJoa6ctkg56c4WcWe","_account":"YzzrzBrO9OSzo6BXwAvVuL5dmMKMqkhOoEqeo","amount":3593.17,"date":"2016-06-15T04:00:00.000Z","name":"Huge Llc Dir","meta":{"location":{"address":"262 W 15th St","city":"New York","state":"NY","zip":"10011","coordinates":{"lat":40.740352,"lon":-74.001761}}},"pending":false,"type":{"primary":"place"},"category":["Transfer","Payroll"],"category_id":"13005000","score":{"location":{"address":1,"city":1,"state":1},"name":0.9}},{"_id":"TwDREqkzBEdqmFmk6","_account":"YzzrzBrO9OSzo6BXwAvVuL5dmMKMqkhOoEqeo","amount":316.14,"date":"2016-06-14T04:00:00.000Z","name":"Transact Bahnhof Mittenwald","meta":{"location":{"address":"262 W 15th St","city":"New York","state":"NY","zip":"10011","coordinates":{"lat":40.740352,"lon":-74.001761}}},"pending":false,"type":{"primary":"place"},"category":[],"category_id":"13005000","score":{"location":{"address":1,"city":1,"state":1},"name":0.9}},{"_id":"Y4vpiksfxGsrd84YX","_account":"YzzrzBrO9OSzo6BXwAvVuL5dmMKMqkhOoEqeo","amount":36.96,"date":"2016-06-13T04:00:00.000Z","name":"Hello","meta":{"location":{"address":"262 W 15th St","city":"New York","state":"NY","zip":"10011","coordinates":{"lat":40.740352,"lon":-74.001761}}},"pending":false,"type":{"primary":"place"},"category":["Service","Business Services"],"category_id":"13005000","score":{"location":{"address":1,"city":1,"state":1},"name":0.9}},{"_id":"BAdKyf9hNiqhmdewN","_account":"YzzrzBrO9OSzo6BXwAvVuL5dmMKMqkhOoEqeo","amount":228.66,"date":"2016-06-12T04:00:00.000Z","name":"Sparkasse Bamberg Bahnhof","meta":{"location":{"address":"262 W 15th St","city":"New York","state":"NY","zip":"10011","coordinates":{"lat":40.740352,"lon":-74.001761}}},"pending":false,"type":{"primary":"place"},"category":["Transfer","Withdrawal","ATM"],"category_id":"13005000","score":{"location":{"address":1,"city":1,"state":1},"name":0.9}},{"_id":"vb6ms62fsWXxJTQcK","_account":"YzzrzBrO9OSzo6BXwAvVuL5dmMKMqkhOoEqeo","amount":0.67,"date":"2016-06-10T04:00:00.000Z","name":"Interest Paid","meta":{"location":{"address":"262 W 15th St","city":"New York","state":"NY","zip":"10011","coordinates":{"lat":40.740352,"lon":-74.001761}}},"pending":false,"type":{"primary":"place"},"category":["Interest","Interest Earned"],"category_id":"13005000","score":{"location":{"address":1,"city":1,"state":1},"name":0.9}},{"_id":"YaW4sst2c5jWY3KiN","_account":"YzzrzBrO9OSzo6BXwAvVuL5dmMKMqkhOoEqeo","amount":1.5,"date":"2016-06-10T04:00:00.000Z","name":"ATM Fee Refund","meta":{"location":{"address":"262 W 15th St","city":"New York","state":"NY","zip":"10011","coordinates":{"lat":40.740352,"lon":-74.001761}}},"pending":false,"type":{"primary":"place"},"category":["Bank Fees","ATM"],"category_id":"13005000","score":{"location":{"address":1,"city":1,"state":1},"name":0.9}},{"_id":"5hSwResqS5NHDegt5","_account":"YzzrzBrO9OSzo6BXwAvVuL5dmMKMqkhOoEqeo","amount":36.96,"date":"2016-06-09T04:00:00.000Z","name":"Hello","meta":{"location":{"address":"262 W 15th St","city":"New York","state":"NY","zip":"10011","coordinates":{"lat":40.740352,"lon":-74.001761}}},"pending":false,"type":{"primary":"place"},"category":["Service","Business Services"],"category_id":"13005000","score":{"location":{"address":1,"city":1,"state":1},"name":0.9}},{"_id":"mN8No6PYwHXQbfnxe","_account":"YzzrzBrO9OSzo6BXwAvVuL5dmMKMqkhOoEqeo","amount":345.72,"date":"2016-06-08T04:00:00.000Z","name":"Spk Mittelmosel Eife","meta":{"location":{"address":"262 W 15th St","city":"New York","state":"NY","zip":"10011","coordinates":{"lat":40.740352,"lon":-74.001761}}},"pending":false,"type":{"primary":"place"},"category":[],"category_id":"13005000","score":{"location":{"address":1,"city":1,"state":1},"name":0.9}},{"_id":"meoZk2Mrfwz6wSqab","_account":"YzzrzBrO9OSzo6BXwAvVuL5dmMKMqkhOoEqeo","amount":97.5,"date":"2016-06-07T04:00:00.000Z","name":"Hello","meta":{"location":{"address":"262 W 15th St","city":"New York","state":"NY","zip":"10011","coordinates":{"lat":40.740352,"lon":-74.001761}}},"pending":false,"type":{"primary":"place"},"category":["Service","Business Services"],"category_id":"13005000","score":{"location":{"address":1,"city":1,"state":1},"name":0.9}},{"_id":"FQxNrxYwimvMG9sx7","_account":"YzzrzBrO9OSzo6BXwAvVuL5dmMKMqkhOoEqeo","amount":286.56,"date":"2016-06-06T04:00:00.000Z","name":"Spk Mittelmosel Eife","meta":{"location":{"address":"262 W 15th St","city":"New York","state":"NY","zip":"10011","coordinates":{"lat":40.740352,"lon":-74.001761}}},"pending":false,"type":{"primary":"place"},"category":[],"category_id":"13005000","score":{"location":{"address":1,"city":1,"state":1},"name":0.9}},{"_id":"K7Y5qXBSNSwGogLqx","_account":"YzzrzBrO9OSzo6BXwAvVuL5dmMKMqkhOoEqeo","amount":28.95,"date":"2016-06-06T04:00:00.000Z","name":"Banfield Pet Hospital","meta":{"location":{"address":"262 W 15th St","city":"New York","state":"NY","zip":"10011","coordinates":{"lat":40.740352,"lon":-74.001761}}},"pending":false,"type":{"primary":"place"},"category":["Service","Veterinarians"],"category_id":"13005000","score":{"location":{"address":1,"city":1,"state":1},"name":0.9}},{"_id":"TDfd5XGWT5PAMNGvE","_account":"YzzrzBrO9OSzo6BXwAvVuL5dmMKMqkhOoEqeo","amount":16.98,"date":"2016-06-06T04:00:00.000Z","name":"National Grid","meta":{"location":{"address":"262 W 15th St","city":"New York","state":"NY","zip":"10011","coordinates":{"lat":40.740352,"lon":-74.001761}}},"pending":false,"type":{"primary":"place"},"category":["Service","Utilities"],"category_id":"13005000","score":{"location":{"address":1,"city":1,"state":1},"name":0.9}},{"_id":"bi6B4YBvhBxBDwSPz","_account":"YzzrzBrO9OSzo6BXwAvVuL5dmMKMqkhOoEqeo","amount":25.94,"date":"2016-06-06T04:00:00.000Z","name":"Hello","meta":{"location":{"address":"262 W 15th St","city":"New York","state":"NY","zip":"10011","coordinates":{"lat":40.740352,"lon":-74.001761}}},"pending":false,"type":{"primary":"place"},"category":["Service","Business Services"],"category_id":"13005000","score":{"location":{"address":1,"city":1,"state":1},"name":0.9}},{"_id":"9xQp9kqcWY8XpG4H4","_account":"YzzrzBrO9OSzo6BXwAvVuL5dmMKMqkhOoEqeo","amount":182.63,"date":"2016-06-06T04:00:00.000Z","name":"Capital One Crcardpmt","meta":{"location":{"address":"262 W 15th St","city":"New York","state":"NY","zip":"10011","coordinates":{"lat":40.740352,"lon":-74.001761}}},"pending":false,"type":{"primary":"place"},"category":["Payment","Credit Card"],"category_id":"13005000","score":{"location":{"address":1,"city":1,"state":1},"name":0.9}},{"_id":"K9y3tfnXR2z2ucgMA","_account":"YzzrzBrO9OSzo6BXwAvVuL5dmMKMqkhOoEqeo","amount":171.94,"date":"2016-06-04T04:00:00.000Z","name":"Deutsche Bank AG","meta":{"location":{"address":"262 W 15th St","city":"New York","state":"NY","zip":"10011","coordinates":{"lat":40.740352,"lon":-74.001761}}},"pending":false,"type":{"primary":"place"},"category":["Service","Financial"],"category_id":"13005000","score":{"location":{"address":1,"city":1,"state":1},"name":0.9}},{"_id":"A4WjyeunsL4ywPxQH","_account":"YzzrzBrO9OSzo6BXwAvVuL5dmMKMqkhOoEqeo","amount":691.84,"date":"2016-06-03T04:00:00.000Z","name":"Fedloanservicing Stdnt Loan","meta":{"location":{"address":"262 W 15th St","city":"New York","state":"NY","zip":"10011","coordinates":{"lat":40.740352,"lon":-74.001761}}},"pending":false,"type":{"primary":"place"},"category":["Payment","Loan"],"category_id":"13005000","score":{"location":{"address":1,"city":1,"state":1},"name":0.9}},{"_id":"ZiS5rwZHG3ZnPetMk","_account":"YzzrzBrO9OSzo6BXwAvVuL5dmMKMqkhOoEqeo","amount":2333.61,"date":"2016-06-03T04:00:00.000Z","name":"Free Childre Direct","meta":{"location":{"address":"262 W 15th St","city":"New York","state":"NY","zip":"10011","coordinates":{"lat":40.740352,"lon":-74.001761}}},"pending":false,"type":{"primary":"place"},"category":["Transfer","Payroll"],"category_id":"13005000","score":{"location":{"address":1,"city":1,"state":1},"name":0.9}},{"_id":"7TksXNDfiEBjsn6M8","_account":"YzzrzBrO9OSzo6BXwAvVuL5dmMKMqkhOoEqeo","amount":61.5,"date":"2016-06-02T04:00:00.000Z","name":"Bridge Fresh Market","meta":{"location":{"address":"262 W 15th St","city":"New York","state":"NY","zip":"10011","coordinates":{"lat":40.740352,"lon":-74.001761}}},"pending":false,"type":{"primary":"place"},"category":["Food and Drink","Restaurants"],"category_id":"13005000","score":{"location":{"address":1,"city":1,"state":1},"name":0.9}},{"_id":"uNPJt5hE8Lgkqro28","_account":"YzzrzBrO9OSzo6BXwAvVuL5dmMKMqkhOoEqeo","amount":277.32,"date":"2016-06-02T04:00:00.000Z","name":"Betterment Sec Transfer","meta":{"location":{"address":"262 W 15th St","city":"New York","state":"NY","zip":"10011","coordinates":{"lat":40.740352,"lon":-74.001761}}},"pending":false,"type":{"primary":"place"},"category":["Transfer"],"category_id":"13005000","score":{"location":{"address":1,"city":1,"state":1},"name":0.9}},{"_id":"PrGfyf8rXbK5HvPcX","_account":"YzzrzBrO9OSzo6BXwAvVuL5dmMKMqkhOoEqeo","amount":7,"date":"2016-06-02T04:00:00.000Z","name":"Venmo","meta":{"location":{"address":"262 W 15th St","city":"New York","state":"NY","zip":"10011","coordinates":{"lat":40.740352,"lon":-74.001761}}},"pending":false,"type":{"primary":"place"},"category":["Transfer"],"category_id":"13005000","score":{"location":{"address":1,"city":1,"state":1},"name":0.9}},{"_id":"BWSmfmZZHSh536SbM","_account":"YzzrzBrO9OSzo6BXwAvVuL5dmMKMqkhOoEqeo","amount":52.24,"date":"2016-06-01T04:00:00.000Z","name":"Hello","meta":{"location":{"address":"262 W 15th St","city":"New York","state":"NY","zip":"10011","coordinates":{"lat":40.740352,"lon":-74.001761}}},"pending":false,"type":{"primary":"place"},"category":["Service","Business Services"],"category_id":"13005000","score":{"location":{"address":1,"city":1,"state":1},"name":0.9}},{"_id":"5kRtBzNvCsQmzQJcF","_account":"YzzrzBrO9OSzo6BXwAvVuL5dmMKMqkhOoEqeo","amount":4007.89,"date":"2016-05-31T04:00:00.000Z","name":"American Express","meta":{"location":{"address":"262 W 15th St","city":"New York","state":"NY","zip":"10011","coordinates":{"lat":40.740352,"lon":-74.001761}}},"pending":false,"type":{"primary":"place"},"category":["Payment","Credit Card"],"category_id":"13005000","score":{"location":{"address":1,"city":1,"state":1},"name":0.9}},{"_id":"dEyW2vYzdmZFeSfKL","_account":"YzzrzBrO9OSzo6BXwAvVuL5dmMKMqkhOoEqeo","amount":2694.22,"date":"2016-05-31T04:00:00.000Z","name":"Huge Llc Dir","meta":{"location":{"address":"262 W 15th St","city":"New York","state":"NY","zip":"10011","coordinates":{"lat":40.740352,"lon":-74.001761}}},"pending":false,"type":{"primary":"place"},"category":["Transfer","Payroll"],"category_id":"13005000","score":{"location":{"address":1,"city":1,"state":1},"name":0.9}},{"_id":"wzifZwNtj2pt2KZEE","_account":"YzzrzBrO9OSzo6BXwAvVuL5dmMKMqkhOoEqeo","amount":116.05,"date":"2016-05-31T04:00:00.000Z","name":"ACS Education Services","meta":{"location":{"address":"262 W 15th St","city":"New York","state":"NY","zip":"10011","coordinates":{"lat":40.740352,"lon":-74.001761}}},"pending":false,"type":{"primary":"place"},"category":["Payment","Loan"],"category_id":"13005000","score":{"location":{"address":1,"city":1,"state":1},"name":0.9}},{"_id":"YbuJkcKz8mZLckYzj","_account":"YzzrzBrO9OSzo6BXwAvVuL5dmMKMqkhOoEqeo","amount":63.64,"date":"2016-05-31T04:00:00.000Z","name":"ACS Education Services","meta":{"location":{"address":"262 W 15th St","city":"New York","state":"NY","zip":"10011","coordinates":{"lat":40.740352,"lon":-74.001761}}},"pending":false,"type":{"primary":"place"},"category":["Payment","Loan"],"category_id":"13005000","score":{"location":{"address":1,"city":1,"state":1},"name":0.9}},{"_id":"B47DMSZdeDidt55w5","_account":"YzzrzBrO9OSzo6BXwAvVuL5dmMKMqkhOoEqeo","amount":7.99,"date":"2016-05-30T04:00:00.000Z","name":"Hulu","meta":{"location":{"address":"262 W 15th St","city":"New York","state":"NY","zip":"10011","coordinates":{"lat":40.740352,"lon":-74.001761}}},"pending":false,"type":{"primary":"place"},"category":["Recreation","Arts and Entertainment","Movie Theatres"],"category_id":"13005000","score":{"location":{"address":1,"city":1,"state":1},"name":0.9}},{"_id":"9CenfEJnncxmS95XT","_account":"YzzrzBrO9OSzo6BXwAvVuL5dmMKMqkhOoEqeo","amount":150,"date":"2016-05-27T04:00:00.000Z","name":"Check 1186","meta":{"location":{"address":"262 W 15th St","city":"New York","state":"NY","zip":"10011","coordinates":{"lat":40.740352,"lon":-74.001761}}},"pending":false,"type":{"primary":"place"},"category":["Transfer","Billpay"],"category_id":"13005000","score":{"location":{"address":1,"city":1,"state":1},"name":0.9}},{"_id":"WDpMXMCPtPqMNhwRw","_account":"YzzrzBrO9OSzo6BXwAvVuL5dmMKMqkhOoEqeo","amount":1.04,"date":"2016-05-27T04:00:00.000Z","name":"Hello","meta":{"location":{"address":"262 W 15th St","city":"New York","state":"NY","zip":"10011","coordinates":{"lat":40.740352,"lon":-74.001761}}},"pending":false,"type":{"primary":"place"},"category":["Service","Business Services"],"category_id":"13005000","score":{"location":{"address":1,"city":1,"state":1},"name":0.9}},{"_id":"ex8NHC44MJXbMY3Ne","_account":"YzzrzBrO9OSzo6BXwAvVuL5dmMKMqkhOoEqeo","amount":23.61,"date":"2016-05-26T04:00:00.000Z","name":"Hello","meta":{"location":{"address":"262 W 15th St","city":"New York","state":"NY","zip":"10011","coordinates":{"lat":40.740352,"lon":-74.001761}}},"pending":false,"type":{"primary":"place"},"category":["Service","Business Services"],"category_id":"13005000","score":{"location":{"address":1,"city":1,"state":1},"name":0.9}},{"_id":"PKxzLZFzfhKHqdXKY","_account":"YzzrzBrO9OSzo6BXwAvVuL5dmMKMqkhOoEqeo","amount":2280,"date":"2016-05-26T04:00:00.000Z","name":"Dam Realty Corp.","meta":{"location":{"address":"262 W 15th St","city":"New York","state":"NY","zip":"10011","coordinates":{"lat":40.740352,"lon":-74.001761}}},"pending":false,"type":{"primary":"place"},"category":["Service","Home Improvement"],"category_id":"13005000","score":{"location":{"address":1,"city":1,"state":1},"name":0.9}},{"_id":"T6QE7Sc3JgBGaTHA9","_account":"YzzrzBrO9OSzo6BXwAvVuL5dmMKMqkhOoEqeo","amount":0.3,"date":"2016-05-26T04:00:00.000Z","name":"Hello Digit Bonus","meta":{"location":{"address":"262 W 15th St","city":"New York","state":"NY","zip":"10011","coordinates":{"lat":40.740352,"lon":-74.001761}}},"pending":false,"type":{"primary":"place"},"category":["Transfer","Credit"],"category_id":"13005000","score":{"location":{"address":1,"city":1,"state":1},"name":0.9}},{"_id":"e4vk6xa48kz6ajQZw","_account":"YzzrzBrO9OSzo6BXwAvVuL5dmMKMqkhOoEqeo","amount":22.57,"date":"2016-05-24T04:00:00.000Z","name":"Hello","meta":{"location":{"address":"262 W 15th St","city":"New York","state":"NY","zip":"10011","coordinates":{"lat":40.740352,"lon":-74.001761}}},"pending":false,"type":{"primary":"place"},"category":["Service","Business Services"],"category_id":"13005000","score":{"location":{"address":1,"city":1,"state":1},"name":0.9}},{"_id":"xoyDPzJfapgvbncEw","_account":"YzzrzBrO9OSzo6BXwAvVuL5dmMKMqkhOoEqeo","amount":48.45,"date":"2016-05-23T04:00:00.000Z","name":"Consolidated Edison","meta":{"location":{"address":"262 W 15th St","city":"New York","state":"NY","zip":"10011","coordinates":{"lat":40.740352,"lon":-74.001761}}},"pending":false,"type":{"primary":"place"},"category":["Service","Utilities"],"category_id":"13005000","score":{"location":{"address":1,"city":1,"state":1},"name":0.9}},{"_id":"jqj7Y3vW9ufnoH8Lt","_account":"YzzrzBrO9OSzo6BXwAvVuL5dmMKMqkhOoEqeo","amount":22.57,"date":"2016-05-23T04:00:00.000Z","name":"Hello","meta":{"location":{"address":"262 W 15th St","city":"New York","state":"NY","zip":"10011","coordinates":{"lat":40.740352,"lon":-74.001761}}},"pending":false,"type":{"primary":"place"},"category":["Service","Business Services"],"category_id":"13005000","score":{"location":{"address":1,"city":1,"state":1},"name":0.9}},{"_id":"2MN2gNGRqeX5a7NnZ","_account":"YzzrzBrO9OSzo6BXwAvVuL5dmMKMqkhOoEqeo","amount":4133.96,"date":"2016-05-20T04:00:00.000Z","name":"Free Childre Direct","meta":{"location":{"address":"262 W 15th St","city":"New York","state":"NY","zip":"10011","coordinates":{"lat":40.740352,"lon":-74.001761}}},"pending":false,"type":{"primary":"place"},"category":["Transfer","Payroll"],"category_id":"13005000","score":{"location":{"address":1,"city":1,"state":1},"name":0.9}},{"_id":"GPq9JPNTKtPDsC74z","_account":"YzzrzBrO9OSzo6BXwAvVuL5dmMKMqkhOoEqeo","amount":1053.33,"date":"2016-05-18T04:00:00.000Z","name":"Navi Ed Serv","meta":{"location":{"address":"262 W 15th St","city":"New York","state":"NY","zip":"10011","coordinates":{"lat":40.740352,"lon":-74.001761}}},"pending":false,"type":{"primary":"place"},"category":["Payment","Loan"],"category_id":"13005000","score":{"location":{"address":1,"city":1,"state":1},"name":0.9}},{"_id":"bdEE85cgrRuhJ87wX","_account":"YzzrzBrO9OSzo6BXwAvVuL5dmMKMqkhOoEqeo","amount":21.43,"date":"2016-05-17T04:00:00.000Z","name":"Hello","meta":{"location":{"address":"262 W 15th St","city":"New York","state":"NY","zip":"10011","coordinates":{"lat":40.740352,"lon":-74.001761}}},"pending":false,"type":{"primary":"place"},"category":["Service","Business Services"],"category_id":"13005000","score":{"location":{"address":1,"city":1,"state":1},"name":0.9}},{"_id":"neTd27TgLFJLdjJvB","_account":"YzzrzBrO9OSzo6BXwAvVuL5dmMKMqkhOoEqeo","amount":0.47,"date":"2016-05-16T04:00:00.000Z","name":"Hello","meta":{"location":{"address":"262 W 15th St","city":"New York","state":"NY","zip":"10011","coordinates":{"lat":40.740352,"lon":-74.001761}}},"pending":false,"type":{"primary":"place"},"category":["Service","Business Services"],"category_id":"13005000","score":{"location":{"address":1,"city":1,"state":1},"name":0.9}},{"_id":"9oRo7bB28SDmEXJ6K","_account":"YzzrzBrO9OSzo6BXwAvVuL5dmMKMqkhOoEqeo","amount":2694.22,"date":"2016-05-13T04:00:00.000Z","name":"Huge Llc Dir","meta":{"location":{"address":"262 W 15th St","city":"New York","state":"NY","zip":"10011","coordinates":{"lat":40.740352,"lon":-74.001761}}},"pending":false,"type":{"primary":"place"},"category":["Transfer","Payroll"],"category_id":"13005000","score":{"location":{"address":1,"city":1,"state":1},"name":0.9}},{"_id":"AhK9dASp4uYdvzzqZ","_account":"YzzrzBrO9OSzo6BXwAvVuL5dmMKMqkhOoEqeo","amount":27.67,"date":"2016-05-12T04:00:00.000Z","name":"Hello","meta":{"location":{"address":"262 W 15th St","city":"New York","state":"NY","zip":"10011","coordinates":{"lat":40.740352,"lon":-74.001761}}},"pending":false,"type":{"primary":"place"},"category":["Service","Business Services"],"category_id":"13005000","score":{"location":{"address":1,"city":1,"state":1},"name":0.9}},{"_id":"gG6LnKw9wvYiNzKNC","_account":"YzzrzBrO9OSzo6BXwAvVuL5dmMKMqkhOoEqeo","amount":75,"date":"2016-05-11T04:00:00.000Z","name":"Hello","meta":{"location":{"address":"262 W 15th St","city":"New York","state":"NY","zip":"10011","coordinates":{"lat":40.740352,"lon":-74.001761}}},"pending":false,"type":{"primary":"place"},"category":["Service","Business Services"],"category_id":"13005000","score":{"location":{"address":1,"city":1,"state":1},"name":0.9}},{"_id":"hLYNHzEkQkmyQxNqq","_account":"YzzrzBrO9OSzo6BXwAvVuL5dmMKMqkhOoEqeo","amount":10,"date":"2016-05-10T04:00:00.000Z","name":"ATM Fee Refund","meta":{"location":{"address":"262 W 15th St","city":"New York","state":"NY","zip":"10011","coordinates":{"lat":40.740352,"lon":-74.001761}}},"pending":false,"type":{"primary":"place"},"category":["Bank Fees","ATM"],"category_id":"13005000","score":{"location":{"address":1,"city":1,"state":1},"name":0.9}},{"_id":"cwcEdcZpj3jK3fjGi","_account":"YzzrzBrO9OSzo6BXwAvVuL5dmMKMqkhOoEqeo","amount":0.55,"date":"2016-05-10T04:00:00.000Z","name":"Interest Paid","meta":{"location":{"address":"262 W 15th St","city":"New York","state":"NY","zip":"10011","coordinates":{"lat":40.740352,"lon":-74.001761}}},"pending":false,"type":{"primary":"place"},"category":["Interest","Interest Earned"],"category_id":"13005000","score":{"location":{"address":1,"city":1,"state":1},"name":0.9}},{"_id":"qcRFZF46k5SDtq6KR","_account":"YzzrzBrO9OSzo6BXwAvVuL5dmMKMqkhOoEqeo","amount":1000,"date":"2016-05-09T04:00:00.000Z","name":"Betterment Sec Transfer","meta":{"location":{"address":"262 W 15th St","city":"New York","state":"NY","zip":"10011","coordinates":{"lat":40.740352,"lon":-74.001761}}},"pending":false,"type":{"primary":"place"},"category":["Transfer"],"category_id":"13005000","score":{"location":{"address":1,"city":1,"state":1},"name":0.9}},{"_id":"xByssaeG7XCA8szio","_account":"YzzrzBrO9OSzo6BXwAvVuL5dmMKMqkhOoEqeo","amount":10.75,"date":"2016-05-09T04:00:00.000Z","name":"Hello","meta":{"location":{"address":"262 W 15th St","city":"New York","state":"NY","zip":"10011","coordinates":{"lat":40.740352,"lon":-74.001761}}},"pending":false,"type":{"primary":"place"},"category":["Service","Business Services"],"category_id":"13005000","score":{"location":{"address":1,"city":1,"state":1},"name":0.9}},{"_id":"r7MkAmsf99jEZPFjb","_account":"YzzrzBrO9OSzo6BXwAvVuL5dmMKMqkhOoEqeo","amount":2356.29,"date":"2016-05-06T04:00:00.000Z","name":"Free Childre Direct","meta":{"location":{"address":"262 W 15th St","city":"New York","state":"NY","zip":"10011","coordinates":{"lat":40.740352,"lon":-74.001761}}},"pending":false,"type":{"primary":"place"},"category":["Transfer","Payroll"],"category_id":"13005000","score":{"location":{"address":1,"city":1,"state":1},"name":0.9}},{"_id":"TC3znDuk7cSJ8qSXN","_account":"YzzrzBrO9OSzo6BXwAvVuL5dmMKMqkhOoEqeo","amount":77.91,"date":"2016-05-06T04:00:00.000Z","name":"Hello","meta":{"location":{"address":"262 W 15th St","city":"New York","state":"NY","zip":"10011","coordinates":{"lat":40.740352,"lon":-74.001761}}},"pending":false,"type":{"primary":"place"},"category":["Service","Business Services"],"category_id":"13005000","score":{"location":{"address":1,"city":1,"state":1},"name":0.9}},{"_id":"zdqJHpzfhF5aj3Q7d","_account":"YzzrzBrO9OSzo6BXwAvVuL5dmMKMqkhOoEqeo","amount":17.03,"date":"2016-05-06T04:00:00.000Z","name":"National Grid","meta":{"location":{"address":"262 W 15th St","city":"New York","state":"NY","zip":"10011","coordinates":{"lat":40.740352,"lon":-74.001761}}},"pending":false,"type":{"primary":"place"},"category":["Service","Utilities"],"category_id":"13005000","score":{"location":{"address":1,"city":1,"state":1},"name":0.9}},{"_id":"ACjGJoCKNcr2r2Yv7","_account":"YzzrzBrO9OSzo6BXwAvVuL5dmMKMqkhOoEqeo","amount":102,"date":"2016-05-06T04:00:00.000Z","name":"Apple","meta":{"location":{"address":"262 W 15th St","city":"New York","state":"NY","zip":"10011","coordinates":{"lat":40.740352,"lon":-74.001761}}},"pending":false,"type":{"primary":"place"},"category":["Shops","Computers and Electronics"],"category_id":"13005000","score":{"location":{"address":1,"city":1,"state":1},"name":0.9}},{"_id":"rB8iHqi7iswScLhzX","_account":"YzzrzBrO9OSzo6BXwAvVuL5dmMKMqkhOoEqeo","amount":28.95,"date":"2016-05-06T04:00:00.000Z","name":"Banfield Pet Hospital","meta":{"location":{"address":"262 W 15th St","city":"New York","state":"NY","zip":"10011","coordinates":{"lat":40.740352,"lon":-74.001761}}},"pending":false,"type":{"primary":"place"},"category":["Service","Veterinarians"],"category_id":"13005000","score":{"location":{"address":1,"city":1,"state":1},"name":0.9}},{"_id":"SmJmk8WcM8rrpDvM6","_account":"YzzrzBrO9OSzo6BXwAvVuL5dmMKMqkhOoEqeo","amount":143.35,"date":"2016-05-05T04:00:00.000Z","name":"Capital One Crcardpmt","meta":{"location":{"address":"262 W 15th St","city":"New York","state":"NY","zip":"10011","coordinates":{"lat":40.740352,"lon":-74.001761}}},"pending":false,"type":{"primary":"place"},"category":["Payment","Credit Card"],"category_id":"13005000","score":{"location":{"address":1,"city":1,"state":1},"name":0.9}},{"_id":"JCrNZXMP8Q2gsFPrB","_account":"YzzrzBrO9OSzo6BXwAvVuL5dmMKMqkhOoEqeo","amount":77.91,"date":"2016-05-04T04:00:00.000Z","name":"Hello","meta":{"location":{"address":"262 W 15th St","city":"New York","state":"NY","zip":"10011","coordinates":{"lat":40.740352,"lon":-74.001761}}},"pending":false,"type":{"primary":"place"},"category":["Service","Business Services"],"category_id":"13005000","score":{"location":{"address":1,"city":1,"state":1},"name":0.9}},{"_id":"ejh4mSaPCmKkixvHw","_account":"YzzrzBrO9OSzo6BXwAvVuL5dmMKMqkhOoEqeo","amount":1000,"date":"2016-05-03T04:00:00.000Z","name":"Betterment Sec Transfer","meta":{"location":{"address":"262 W 15th St","city":"New York","state":"NY","zip":"10011","coordinates":{"lat":40.740352,"lon":-74.001761}}},"pending":false,"type":{"primary":"place"},"category":["Transfer"],"category_id":"13005000","score":{"location":{"address":1,"city":1,"state":1},"name":0.9}},{"_id":"HusakJGQzFGWNFcBd","_account":"YzzrzBrO9OSzo6BXwAvVuL5dmMKMqkhOoEqeo","amount":119.85,"date":"2016-05-03T04:00:00.000Z","name":"Hello","meta":{"location":{"address":"262 W 15th St","city":"New York","state":"NY","zip":"10011","coordinates":{"lat":40.740352,"lon":-74.001761}}},"pending":false,"type":{"primary":"place"},"category":["Service","Business Services"],"category_id":"13005000","score":{"location":{"address":1,"city":1,"state":1},"name":0.9}},{"_id":"3w3g4C3n6AsDjiyuz","_account":"YzzrzBrO9OSzo6BXwAvVuL5dmMKMqkhOoEqeo","amount":277.32,"date":"2016-05-03T04:00:00.000Z","name":"Betterment Sec Transfer","meta":{"location":{"address":"262 W 15th St","city":"New York","state":"NY","zip":"10011","coordinates":{"lat":40.740352,"lon":-74.001761}}},"pending":false,"type":{"primary":"place"},"category":["Transfer"],"category_id":"13005000","score":{"location":{"address":1,"city":1,"state":1},"name":0.9}},{"_id":"BrZrf7tuWvsHmK7uv","_account":"YzzrzBrO9OSzo6BXwAvVuL5dmMKMqkhOoEqeo","amount":691.84,"date":"2016-05-03T04:00:00.000Z","name":"Fedloanservicing Stdnt Loan","meta":{"location":{"address":"262 W 15th St","city":"New York","state":"NY","zip":"10011","coordinates":{"lat":40.740352,"lon":-74.001761}}},"pending":false,"type":{"primary":"place"},"category":["Payment","Loan"],"category_id":"13005000","score":{"location":{"address":1,"city":1,"state":1},"name":0.9}},{"_id":"6sPxBSsigzgCospYj","_account":"YzzrzBrO9OSzo6BXwAvVuL5dmMKMqkhOoEqeo","amount":63.64,"date":"2016-04-29T04:00:00.000Z","name":"ACS Education Services","meta":{"location":{"address":"262 W 15th St","city":"New York","state":"NY","zip":"10011","coordinates":{"lat":40.740352,"lon":-74.001761}}},"pending":false,"type":{"primary":"place"},"category":["Payment","Loan"],"category_id":"13005000","score":{"location":{"address":1,"city":1,"state":1},"name":0.9}},{"_id":"nqk63Gbjov7Spvd4X","_account":"YzzrzBrO9OSzo6BXwAvVuL5dmMKMqkhOoEqeo","amount":2694.22,"date":"2016-04-29T04:00:00.000Z","name":"Huge Llc Dir","meta":{"location":{"address":"262 W 15th St","city":"New York","state":"NY","zip":"10011","coordinates":{"lat":40.740352,"lon":-74.001761}}},"pending":false,"type":{"primary":"place"},"category":["Transfer","Payroll"],"category_id":"13005000","score":{"location":{"address":1,"city":1,"state":1},"name":0.9}},{"_id":"oE2ovyfoypmnwSKuD","_account":"YzzrzBrO9OSzo6BXwAvVuL5dmMKMqkhOoEqeo","amount":116.05,"date":"2016-04-29T04:00:00.000Z","name":"ACS Education Services","meta":{"location":{"address":"262 W 15th St","city":"New York","state":"NY","zip":"10011","coordinates":{"lat":40.740352,"lon":-74.001761}}},"pending":false,"type":{"primary":"place"},"category":["Payment","Loan"],"category_id":"13005000","score":{"location":{"address":1,"city":1,"state":1},"name":0.9}},{"_id":"vWEChnojzGa6ab8cM","_account":"YzzrzBrO9OSzo6BXwAvVuL5dmMKMqkhOoEqeo","amount":41.85,"date":"2016-04-29T04:00:00.000Z","name":"Wscs Smith Laun 137 Smith Street","meta":{"location":{"address":"262 W 15th St","city":"New York","state":"NY","zip":"10011","coordinates":{"lat":40.740352,"lon":-74.001761}}},"pending":false,"type":{"primary":"place"},"category":[],"category_id":"13005000","score":{"location":{"address":1,"city":1,"state":1},"name":0.9}},{"_id":"mMtrFGbHtYhSCezwX","_account":"YzzrzBrO9OSzo6BXwAvVuL5dmMKMqkhOoEqeo","amount":7.99,"date":"2016-04-29T04:00:00.000Z","name":"Hulu","meta":{"location":{"address":"262 W 15th St","city":"New York","state":"NY","zip":"10011","coordinates":{"lat":40.740352,"lon":-74.001761}}},"pending":false,"type":{"primary":"place"},"category":["Recreation","Arts and Entertainment","Movie Theatres"],"category_id":"13005000","score":{"location":{"address":1,"city":1,"state":1},"name":0.9}},{"_id":"2Gp4jPPbPZJZy3bQr","_account":"YzzrzBrO9OSzo6BXwAvVuL5dmMKMqkhOoEqeo","amount":61.5,"date":"2016-04-29T04:00:00.000Z","name":"Peas N Pickles","meta":{"location":{"address":"262 W 15th St","city":"New York","state":"NY","zip":"10011","coordinates":{"lat":40.740352,"lon":-74.001761}}},"pending":false,"type":{"primary":"place"},"category":["Shops","Supermarkets and Groceries"],"category_id":"13005000","score":{"location":{"address":1,"city":1,"state":1},"name":0.9}},{"_id":"kqHN6KcknfS7AFLvo","_account":"YzzrzBrO9OSzo6BXwAvVuL5dmMKMqkhOoEqeo","amount":92.19,"date":"2016-04-28T04:00:00.000Z","name":"Hello","meta":{"location":{"address":"262 W 15th St","city":"New York","state":"NY","zip":"10011","coordinates":{"lat":40.740352,"lon":-74.001761}}},"pending":false,"type":{"primary":"place"},"category":["Service","Business Services"],"category_id":"13005000","score":{"location":{"address":1,"city":1,"state":1},"name":0.9}},{"_id":"mq6NMmEthKKEAKpE7","_account":"YzzrzBrO9OSzo6BXwAvVuL5dmMKMqkhOoEqeo","amount":2280,"date":"2016-04-27T04:00:00.000Z","name":"Check 995009","meta":{"location":{"address":"262 W 15th St","city":"New York","state":"NY","zip":"10011","coordinates":{"lat":40.740352,"lon":-74.001761}}},"pending":false,"type":{"primary":"place"},"category":["Transfer","Billpay"],"category_id":"13005000","score":{"location":{"address":1,"city":1,"state":1},"name":0.9}},{"_id":"FJ4pXCqsv5BSh2omu","_account":"YzzrzBrO9OSzo6BXwAvVuL5dmMKMqkhOoEqeo","amount":4100.7,"date":"2016-04-27T04:00:00.000Z","name":"American Express","meta":{"location":{"address":"262 W 15th St","city":"New York","state":"NY","zip":"10011","coordinates":{"lat":40.740352,"lon":-74.001761}}},"pending":false,"type":{"primary":"place"},"category":["Payment","Credit Card"],"category_id":"13005000","score":{"location":{"address":1,"city":1,"state":1},"name":0.9}},{"_id":"82PzfNojGhc7khNeX","_account":"YzzrzBrO9OSzo6BXwAvVuL5dmMKMqkhOoEqeo","amount":320,"date":"2016-04-27T04:00:00.000Z","name":"Check 995010","meta":{"location":{"address":"262 W 15th St","city":"New York","state":"NY","zip":"10011","coordinates":{"lat":40.740352,"lon":-74.001761}}},"pending":false,"type":{"primary":"place"},"category":["Transfer","Billpay"],"category_id":"13005000","score":{"location":{"address":1,"city":1,"state":1},"name":0.9}},{"_id":"KQvnHm8nHuGbBHDBx","_account":"YzzrzBrO9OSzo6BXwAvVuL5dmMKMqkhOoEqeo","amount":5.56,"date":"2016-04-27T04:00:00.000Z","name":"Hello","meta":{"location":{"address":"262 W 15th St","city":"New York","state":"NY","zip":"10011","coordinates":{"lat":40.740352,"lon":-74.001761}}},"pending":false,"type":{"primary":"place"},"category":["Service","Business Services"],"category_id":"13005000","score":{"location":{"address":1,"city":1,"state":1},"name":0.9}},{"_id":"dH57vCyy3pKeXbQXF","_account":"YzzrzBrO9OSzo6BXwAvVuL5dmMKMqkhOoEqeo","amount":230,"date":"2016-04-26T04:00:00.000Z","name":"Hello Digit Savings","meta":{"location":{"address":"262 W 15th St","city":"New York","state":"NY","zip":"10011","coordinates":{"lat":40.740352,"lon":-74.001761}}},"pending":false,"type":{"primary":"place"},"category":["Transfer","Deposit"],"category_id":"13005000","score":{"location":{"address":1,"city":1,"state":1},"name":0.9}},{"_id":"iJazRYaiCfNFi5cjX","_account":"YzzrzBrO9OSzo6BXwAvVuL5dmMKMqkhOoEqeo","amount":310,"date":"2016-04-25T04:00:00.000Z","name":"Hello Digit Savings","meta":{"location":{"address":"262 W 15th St","city":"New York","state":"NY","zip":"10011","coordinates":{"lat":40.740352,"lon":-74.001761}}},"pending":false,"type":{"primary":"place"},"category":["Transfer","Deposit"],"category_id":"13005000","score":{"location":{"address":1,"city":1,"state":1},"name":0.9}},{"_id":"9eoN7Go3XmY3HFqQt","_account":"YzzrzBrO9OSzo6BXwAvVuL5dmMKMqkhOoEqeo","amount":74.16,"date":"2016-04-25T04:00:00.000Z","name":"Comenity Pay Ns","meta":{"location":{"address":"262 W 15th St","city":"New York","state":"NY","zip":"10011","coordinates":{"lat":40.740352,"lon":-74.001761}}},"pending":false,"type":{"primary":"place"},"category":[],"category_id":"13005000","score":{"location":{"address":1,"city":1,"state":1},"name":0.9}},{"_id":"pPotr3h7SHG2XHhLW","_account":"YzzrzBrO9OSzo6BXwAvVuL5dmMKMqkhOoEqeo","amount":82.25,"date":"2016-04-24T04:00:00.000Z","name":"El Gllito 20 34th Avenue","meta":{"location":{"address":"262 W 15th St","city":"New York","state":"NY","zip":"10011","coordinates":{"lat":40.740352,"lon":-74.001761}}},"pending":false,"type":{"primary":"place"},"category":[],"category_id":"13005000","score":{"location":{"address":1,"city":1,"state":1},"name":0.9}},{"_id":"j3T9YH8pFvBub2snu","_account":"YzzrzBrO9OSzo6BXwAvVuL5dmMKMqkhOoEqeo","amount":61.85,"date":"2016-04-23T04:00:00.000Z","name":"Wscs Smith Laun 137 Smith Street","meta":{"location":{"address":"262 W 15th St","city":"New York","state":"NY","zip":"10011","coordinates":{"lat":40.740352,"lon":-74.001761}}},"pending":false,"type":{"primary":"place"},"category":[],"category_id":"13005000","score":{"location":{"address":1,"city":1,"state":1},"name":0.9}},{"_id":"GmG7oG9qzoZLqm5NM","_account":"YzzrzBrO9OSzo6BXwAvVuL5dmMKMqkhOoEqeo","amount":62.75,"date":"2016-04-23T04:00:00.000Z","name":"Pai Iso 305 Atlantic Avenue","meta":{"location":{"address":"262 W 15th St","city":"New York","state":"NY","zip":"10011","coordinates":{"lat":40.740352,"lon":-74.001761}}},"pending":false,"type":{"primary":"place"},"category":[],"category_id":"13005000","score":{"location":{"address":1,"city":1,"state":1},"name":0.9}},{"_id":"3t9s7ZTpbNGkjgX5P","_account":"YzzrzBrO9OSzo6BXwAvVuL5dmMKMqkhOoEqeo","amount":4136.49,"date":"2016-04-22T04:00:00.000Z","name":"Free Childre Direct","meta":{"location":{"address":"262 W 15th St","city":"New York","state":"NY","zip":"10011","coordinates":{"lat":40.740352,"lon":-74.001761}}},"pending":false,"type":{"primary":"place"},"category":["Transfer","Payroll"],"category_id":"13005000","score":{"location":{"address":1,"city":1,"state":1},"name":0.9}},{"_id":"szeRrH6mDh4Muipor","_account":"YzzrzBrO9OSzo6BXwAvVuL5dmMKMqkhOoEqeo","amount":31.39,"date":"2016-04-22T04:00:00.000Z","name":"Hello","meta":{"location":{"address":"262 W 15th St","city":"New York","state":"NY","zip":"10011","coordinates":{"lat":40.740352,"lon":-74.001761}}},"pending":false,"type":{"primary":"place"},"category":["Service","Business Services"],"category_id":"13005000","score":{"location":{"address":1,"city":1,"state":1},"name":0.9}},{"_id":"fx7LxrkbZ5osapLfH","_account":"YzzrzBrO9OSzo6BXwAvVuL5dmMKMqkhOoEqeo","amount":54.32,"date":"2016-04-22T04:00:00.000Z","name":"Consolidated Edison","meta":{"location":{"address":"262 W 15th St","city":"New York","state":"NY","zip":"10011","coordinates":{"lat":40.740352,"lon":-74.001761}}},"pending":false,"type":{"primary":"place"},"category":["Service","Utilities"],"category_id":"13005000","score":{"location":{"address":1,"city":1,"state":1},"name":0.9}},{"_id":"8FfzaFLXNwZZhwD9R","_account":"YzzrzBrO9OSzo6BXwAvVuL5dmMKMqkhOoEqeo","amount":30,"date":"2016-04-20T04:00:00.000Z","name":"Thomas Golden","meta":{"location":{"address":"262 W 15th St","city":"New York","state":"NY","zip":"10011","coordinates":{"lat":40.740352,"lon":-74.001761}}},"pending":false,"type":{"primary":"place"},"category":["Healthcare","Physicians"],"category_id":"13005000","score":{"location":{"address":1,"city":1,"state":1},"name":0.9}},{"_id":"yLiEA7WF4B2YX7JpF","_account":"YzzrzBrO9OSzo6BXwAvVuL5dmMKMqkhOoEqeo","amount":76.84,"date":"2016-04-20T04:00:00.000Z","name":"Hello","meta":{"location":{"address":"262 W 15th St","city":"New York","state":"NY","zip":"10011","coordinates":{"lat":40.740352,"lon":-74.001761}}},"pending":false,"type":{"primary":"place"},"category":["Service","Business Services"],"category_id":"13005000","score":{"location":{"address":1,"city":1,"state":1},"name":0.9}},{"_id":"ucgyPF4SPCq9tjBuw","_account":"YzzrzBrO9OSzo6BXwAvVuL5dmMKMqkhOoEqeo","amount":20,"date":"2016-04-19T04:00:00.000Z","name":"Venmo Cashout","meta":{"location":{"address":"262 W 15th St","city":"New York","state":"NY","zip":"10011","coordinates":{"lat":40.740352,"lon":-74.001761}}},"pending":false,"type":{"primary":"place"},"category":["Transfer","Deposit"],"category_id":"13005000","score":{"location":{"address":1,"city":1,"state":1},"name":0.9}},{"_id":"fpvxRp8tYizYGecWR","_account":"YzzrzBrO9OSzo6BXwAvVuL5dmMKMqkhOoEqeo","amount":331.31,"date":"2016-04-19T04:00:00.000Z","name":"Transfer","meta":{"location":{"address":"262 W 15th St","city":"New York","state":"NY","zip":"10011","coordinates":{"lat":40.740352,"lon":-74.001761}}},"pending":false,"type":{"primary":"place"},"category":["Transfer"],"category_id":"13005000","score":{"location":{"address":1,"city":1,"state":1},"name":0.9}},{"_id":"PyZ6DkH7rq9Dsmkvx","_account":"YzzrzBrO9OSzo6BXwAvVuL5dmMKMqkhOoEqeo","amount":9,"date":"2016-04-19T04:00:00.000Z","name":"Hello","meta":{"location":{"address":"262 W 15th St","city":"New York","state":"NY","zip":"10011","coordinates":{"lat":40.740352,"lon":-74.001761}}},"pending":false,"type":{"primary":"place"},"category":["Service","Business Services"],"category_id":"13005000","score":{"location":{"address":1,"city":1,"state":1},"name":0.9}},{"_id":"Y2f9LT6JrWRPazoaA","_account":"YzzrzBrO9OSzo6BXwAvVuL5dmMKMqkhOoEqeo","amount":899,"date":"2016-04-18T04:00:00.000Z","name":"Nys Dtf Pit","meta":{"location":{"address":"262 W 15th St","city":"New York","state":"NY","zip":"10011","coordinates":{"lat":40.740352,"lon":-74.001761}}},"pending":false,"type":{"primary":"place"},"category":["Tax","Payment"],"category_id":"13005000","score":{"location":{"address":1,"city":1,"state":1},"name":0.9}},{"_id":"rYFxTsWdRJMn4FYgX","_account":"YzzrzBrO9OSzo6BXwAvVuL5dmMKMqkhOoEqeo","amount":1053.33,"date":"2016-04-18T04:00:00.000Z","name":"Navi Ed Serv","meta":{"location":{"address":"262 W 15th St","city":"New York","state":"NY","zip":"10011","coordinates":{"lat":40.740352,"lon":-74.001761}}},"pending":false,"type":{"primary":"place"},"category":["Payment","Loan"],"category_id":"13005000","score":{"location":{"address":1,"city":1,"state":1},"name":0.9}},{"_id":"i9vLmWDx65ixQLKNc","_account":"YzzrzBrO9OSzo6BXwAvVuL5dmMKMqkhOoEqeo","amount":96.76,"date":"2016-04-18T04:00:00.000Z","name":"Robinhood Crfn Ach","meta":{"location":{"address":"262 W 15th St","city":"New York","state":"NY","zip":"10011","coordinates":{"lat":40.740352,"lon":-74.001761}}},"pending":false,"type":{"primary":"place"},"category":[],"category_id":"13005000","score":{"location":{"address":1,"city":1,"state":1},"name":0.9}},{"_id":"DPHQ8DsenRgW8Z8h3","_account":"YzzrzBrO9OSzo6BXwAvVuL5dmMKMqkhOoEqeo","amount":60,"date":"2016-04-17T04:00:00.000Z","name":"Pai Iso 261 Flatbush Avenue","meta":{"location":{"address":"262 W 15th St","city":"New York","state":"NY","zip":"10011","coordinates":{"lat":40.740352,"lon":-74.001761}}},"pending":false,"type":{"primary":"place"},"category":[],"category_id":"13005000","score":{"location":{"address":1,"city":1,"state":1},"name":0.9}},{"_id":"3QbWwWQxQfoAD2g6Q","_account":"YzzrzBrO9OSzo6BXwAvVuL5dmMKMqkhOoEqeo","amount":60,"date":"2016-04-17T04:00:00.000Z","name":"Pai Iso 261 Flatbush Avenue","meta":{"location":{"address":"262 W 15th St","city":"New York","state":"NY","zip":"10011","coordinates":{"lat":40.740352,"lon":-74.001761}}},"pending":false,"type":{"primary":"place"},"category":[],"category_id":"13005000","score":{"location":{"address":1,"city":1,"state":1},"name":0.9}},{"_id":"o4No4EHmrtWTsumZu","_account":"YzzrzBrO9OSzo6BXwAvVuL5dmMKMqkhOoEqeo","amount":0.9,"date":"2016-04-15T04:00:00.000Z","name":"Hello","meta":{"location":{"address":"262 W 15th St","city":"New York","state":"NY","zip":"10011","coordinates":{"lat":40.740352,"lon":-74.001761}}},"pending":false,"type":{"primary":"place"},"category":["Service","Business Services"],"category_id":"13005000","score":{"location":{"address":1,"city":1,"state":1},"name":0.9}},{"_id":"RFFrmjxhusbGNb7ow","_account":"YzzrzBrO9OSzo6BXwAvVuL5dmMKMqkhOoEqeo","amount":2694.22,"date":"2016-04-15T04:00:00.000Z","name":"Huge Llc Dir","meta":{"location":{"address":"262 W 15th St","city":"New York","state":"NY","zip":"10011","coordinates":{"lat":40.740352,"lon":-74.001761}}},"pending":false,"type":{"primary":"place"},"category":["Transfer","Payroll"],"category_id":"13005000","score":{"location":{"address":1,"city":1,"state":1},"name":0.9}},{"_id":"zyo9gbw5CiMYZMk3a","_account":"YzzrzBrO9OSzo6BXwAvVuL5dmMKMqkhOoEqeo","amount":14,"date":"2016-04-14T04:00:00.000Z","name":"Hello","meta":{"location":{"address":"262 W 15th St","city":"New York","state":"NY","zip":"10011","coordinates":{"lat":40.740352,"lon":-74.001761}}},"pending":false,"type":{"primary":"place"},"category":["Service","Business Services"],"category_id":"13005000","score":{"location":{"address":1,"city":1,"state":1},"name":0.9}},{"_id":"k9m5HPTBetBPfDqfD","_account":"YzzrzBrO9OSzo6BXwAvVuL5dmMKMqkhOoEqeo","amount":22.75,"date":"2016-04-14T04:00:00.000Z","name":"Pai Iso 305 Atlantic Avenue","meta":{"location":{"address":"262 W 15th St","city":"New York","state":"NY","zip":"10011","coordinates":{"lat":40.740352,"lon":-74.001761}}},"pending":false,"type":{"primary":"place"},"category":[],"category_id":"13005000","score":{"location":{"address":1,"city":1,"state":1},"name":0.9}},{"_id":"f9oH5eW35dj9tna5Y","_account":"YzzrzBrO9OSzo6BXwAvVuL5dmMKMqkhOoEqeo","amount":22.54,"date":"2016-04-13T04:00:00.000Z","name":"Hello","meta":{"location":{"address":"262 W 15th St","city":"New York","state":"NY","zip":"10011","coordinates":{"lat":40.740352,"lon":-74.001761}}},"pending":false,"type":{"primary":"place"},"category":["Service","Business Services"],"category_id":"13005000","score":{"location":{"address":1,"city":1,"state":1},"name":0.9}},{"_id":"qbyWN6t8yXBxLqqto","_account":"YzzrzBrO9OSzo6BXwAvVuL5dmMKMqkhOoEqeo","amount":43.97,"date":"2016-04-12T04:00:00.000Z","name":"Hello","meta":{"location":{"address":"262 W 15th St","city":"New York","state":"NY","zip":"10011","coordinates":{"lat":40.740352,"lon":-74.001761}}},"pending":false,"type":{"primary":"place"},"category":["Service","Business Services"],"category_id":"13005000","score":{"location":{"address":1,"city":1,"state":1},"name":0.9}},{"_id":"pJY2P5Jm7vANiDC9p","_account":"YzzrzBrO9OSzo6BXwAvVuL5dmMKMqkhOoEqeo","amount":85,"date":"2016-04-11T04:00:00.000Z","name":"Transfer","meta":{"location":{"address":"262 W 15th St","city":"New York","state":"NY","zip":"10011","coordinates":{"lat":40.740352,"lon":-74.001761}}},"pending":false,"type":{"primary":"place"},"category":["Transfer"],"category_id":"13005000","score":{"location":{"address":1,"city":1,"state":1},"name":0.9}}]
